{
  "devices": [
    {
      "name": "FWAKlassenPC00",
      "address": "192.168.53.44",
      "location": "",
      "profile": "default"
    },
    {
      "name": "FWAKlassenPC01",
      "address": "192.168.53.197",
      "location": "",
      "profile": "default"
    },
    {
      "name": "FWAKlassenPC02",
      "address": "192.168.53.196",
      "location": "",
      "profile": "default"
    },
    {
      "name": "FWAKlassenPC03",
      "address": "192.168.53.195",
      "location": "",
      "profile": "default"
    },
    {
      "name": "FWAKlassenPC04",
      "address": "192.168.53.194",
      "location": "",
      "profile": "default"
    },
    {
      "name": "FWAKlassenPC05",
      "address": "192.168.53.184",
      "location": "",
      "profile": "default"
    },
    {
      "name": "FWAKlassenPC06",
      "address": "192.168.53.183",
      "location": "",
      "profile": "default"
    },
    {
      "name": "FWAKlassenPC07",
      "address": "192.168.53.131",
      "location": "",
      "profile": "default"
    },
    {
      "name": "FWAKlassenPC08",
      "address": "192.168.53.127",
      "location": "",
      "profile": "default"
    },
    {
      "name": "FWAKlassenPC09",
      "address": "192.168.53.48",
      "location": "",
      "profile": "default"
    },
    {
      "name": "FWAKlassenPC10",
      "address": "192.168.53.46",
      "location": "",
      "profile": "default"
    },
    {
      "name": "FWAKlassenPC11",
      "address": "192.168.53.42",
      "location": "",
      "profile": "default"
    },
    {
      "name": "FWAKlassenPC12",
      "address": "192.168.53.37",
      "location": "",
      "profile": "default"
    },
    {
      "name": "FWAKlassenPC13",
      "address": "192.168.53.185",
      "location": "",
      "profile": "default"
    },
    {
      "name": "DESKTOP-2TECB1V",
      "address": "192.168.178.20",
      "location": "",
      "profile": "default"
    }
  ]
}